City ID,City,Cloudiness,Country,Date,Humidity,Lat,Lng,Max Temp,Wind Speed
0,Hilo,100,US,1666232411,78,19.7297,-155.09,86.29,8.05
1,Ginir,50,ET,1666232411,93,7.1333,40.7,55.45,3.65
2,Médéa,1,DZ,1666232412,27,36.2642,2.7539,69.93,5.32
3,São Miguel do Araguaia,4,BR,1666232412,35,-13.275,-50.1628,81.07,5.79
4,Thompson,100,CA,1666232116,93,55.7435,-97.8558,33.96,3.44
5,Cape Town,20,ZA,1666232403,82,-33.9258,18.4232,62.11,1.14
6,São João da Barra,100,BR,1666232413,85,-21.6403,-41.0511,73.51,16.11
7,Koungou,0,YT,1666232414,94,-12.7336,45.2042,73.11,3.44
8,São Filipe,67,CV,1666232414,82,14.8961,-24.4956,78.58,2.71
9,Kutum,8,SD,1666232415,28,14.2,24.6667,71.85,8.75
10,Pevek,100,RU,1666232415,90,69.7008,170.3133,29.01,6.51
11,Hasaki,0,JP,1666232416,47,35.7333,140.8333,68.29,13.02
12,Abalak,100,RU,1666232416,95,58.1286,68.5944,38.19,6.29
13,Bengkulu,100,ID,1666232417,84,-3.8004,102.2655,77.29,2.3
14,Port Elizabeth,0,ZA,1666232417,81,-33.918,25.5701,71.1,28.77
15,Quixeré,8,BR,1666232418,62,-5.0742,-37.9886,78.55,10.38
16,Hermanus,16,ZA,1666232418,89,-34.4187,19.2345,58.8,11.41
17,Omsukchan,100,RU,1666232419,87,62.5333,155.8,9.88,7.85
18,Lebu,63,CL,1666232419,91,-37.6167,-73.65,50.92,5.77
19,Mataura,100,NZ,1666232420,91,-46.1927,168.8643,48.25,12.55
20,Berezovyy,99,RU,1666232420,44,51.6667,135.7,46.53,5.88
21,Kindu,98,CD,1666232421,99,-2.95,25.95,68.85,1.66
22,Half Moon Bay,40,US,1666232422,47,37.4636,-122.4286,82.17,13.8
23,Nanortalik,6,GL,1666232409,72,60.1432,-45.2371,34.25,34.14
24,Yumen,7,CN,1666232422,46,40.2833,97.2,46.76,12.37
25,Vaini,75,TO,1666232423,88,-21.2,-175.2,77.16,8.05
26,Denpasar,40,ID,1666232236,94,-8.65,115.2167,82.06,5.75
27,East London,36,ZA,1666232194,65,-33.0153,27.9116,74.68,9.26
28,Rikitea,100,PF,1666232424,70,-23.1203,-134.9692,71.19,17.76
29,Alta Floresta,35,BR,1666232424,94,-9.8756,-56.0861,70.52,4.32
30,Kalmunai,90,LK,1666232425,78,7.4167,81.8167,80.13,2.84
31,Korla,100,CN,1666232426,42,41.7597,86.1469,53.74,17.02
32,Coahuayana Viejo,85,MX,1666232426,88,18.7333,-103.6833,77.79,2.24
33,Ushuaia,20,AR,1666232427,80,-54.8,-68.3,35.26,10.36
34,Hofn,0,IS,1666232428,73,64.2539,-15.2082,41.92,11.54
35,Iqaluit,75,CA,1666232428,74,63.7506,-68.5145,26.33,25.32
36,Maragogi,68,BR,1666232429,83,-9.0122,-35.2225,73.78,10.49
37,Punta Arenas,0,CL,1666232315,75,-53.15,-70.9167,39.31,20.71
38,Samaná,20,DO,1666232429,86,19.2056,-69.3369,77.76,4.79
39,Quatre Cocos,23,MU,1666232430,71,-20.2078,57.7625,67.08,8.9
40,Zhangaözen,69,KZ,1666232430,58,43.3,52.8,53.58,21.43
41,Atuona,0,PF,1666232431,71,-9.8,-139.0333,77.31,12.68
42,Kapaa,100,US,1666232385,82,22.0752,-159.319,76.98,19.57
43,Barcarena,100,BR,1666232433,84,-1.5058,-48.6258,78.85,9.35
44,Prince Rupert,100,CA,1666232433,85,54.3161,-130.3201,55.09,11.5
45,Port Alfred,45,ZA,1666232310,88,-33.5906,26.891,70.18,1.99
46,Dalaba,100,GN,1666232434,87,10.7,-12.25,62.8,0.56
47,Riyadh,4,SA,1666232173,19,24.6877,46.7219,68.14,2.44
48,Aizawl,5,IN,1666232434,65,23.7333,92.7167,68.52,1.5
49,Bethel,0,US,1666232435,79,41.3712,-73.414,48.65,0.0
50,Shimanovsk,6,RU,1666232435,47,52.0,127.7,43.3,6.91
51,Christchurch,8,NZ,1666232432,54,-43.5333,172.6333,69.48,16.11
52,Egvekinot,100,RU,1666232436,99,66.3167,-179.1667,29.7,8.93
53,New Norfolk,6,AU,1666232437,44,-42.7826,147.0587,66.88,3.0
54,Katsuura,0,JP,1666232437,47,35.1333,140.3,64.92,11.41
55,Anadyr,75,RU,1666232438,100,64.75,177.4833,37.9,11.18
56,Ponta do Sol,100,PT,1666232439,86,32.6667,-17.1,74.01,12.55
57,Devils Lake,0,US,1666232439,57,48.1128,-98.8651,45.95,4.61
58,Beringovskiy,23,RU,1666232329,87,63.05,179.3167,37.09,9.44
59,Upernavik,100,GL,1666232439,89,72.7868,-56.1549,18.34,6.4
60,Sistranda,100,NO,1666232440,77,63.7256,8.834,44.56,15.52
61,Zaysan,100,KZ,1666232440,61,47.4667,84.8667,42.26,7.43
62,Severomuysk,91,RU,1666232441,91,56.1481,113.4267,20.66,3.53
63,Provideniya,100,RU,1666232441,93,64.3833,-173.3,37.51,18.01
64,Vestmanna,100,FO,1666232441,81,62.1564,-7.1664,40.12,8.05
65,Luba,94,GQ,1666232442,84,3.4568,8.5547,76.89,3.18
66,Narsaq,0,GL,1666232442,62,60.9167,-46.05,25.83,15.05
67,Koeru,99,EE,1666232442,85,58.9631,26.0308,39.02,4.74
68,Busselton,95,AU,1666232443,85,-33.65,115.3333,62.82,13.76
69,Chokurdakh,100,RU,1666232321,99,70.6333,147.9167,-0.38,4.52
70,Taoudenni,58,ML,1666232443,16,22.6783,-3.9836,83.52,15.88
71,Lüdenscheid,89,DE,1666232444,86,51.2167,7.6167,51.12,4.0
72,Tarko-Sale,100,RU,1666232444,95,64.9225,77.785,37.0,17.85
73,Anantapur,90,IN,1666232445,84,14.6833,77.6,75.52,4.05
74,Ust'-Kut,100,RU,1666232445,92,56.7938,105.7672,34.18,1.52
75,Saint Joseph,80,US,1666232445,40,39.7686,-94.8466,45.55,3.42
76,Mehamn,75,NO,1666232446,86,71.0357,27.8492,33.75,40.29
77,Almaznyy,100,RU,1666232446,58,48.0448,40.045,48.07,6.24
78,Jamestown,75,US,1666232447,96,42.097,-79.2353,38.71,8.01
79,Huarmey,58,PE,1666232447,84,-10.0681,-78.1522,61.61,9.01
80,Tanhaçu,3,BR,1666232448,70,-14.0214,-41.2481,70.43,7.09
81,Tasiilaq,100,GL,1666232330,97,65.6145,-37.6368,33.96,8.79
82,Port Hedland,0,AU,1666232448,21,-20.3167,118.5667,95.05,10.36
83,Albany,62,US,1666232336,77,42.6001,-73.9662,43.45,4.79
84,Gouré,96,NE,1666232449,23,13.9835,10.2704,79.83,9.73
85,Sakaiminato,20,JP,1666232449,52,35.55,133.2333,64.38,5.75
86,Avarua,20,CK,1666232450,69,-21.2078,-159.775,78.85,11.5
87,Krasnyy Yar,99,RU,1666232450,90,46.5331,48.3456,51.73,5.57
88,Hamilton,0,US,1666232450,44,39.1834,-84.5333,45.86,10.36
89,Hastings,100,GB,1666232451,96,50.8552,0.5729,61.52,12.03
90,Esperance,65,AU,1666232451,59,-33.8667,121.9,73.24,16.51
91,Castro,99,BR,1666232188,95,-24.7911,-50.0119,60.62,3.78
92,Henties Bay,96,NA,1666232452,86,-22.116,14.2845,58.91,7.49
93,Ancud,100,CL,1666232452,96,-41.8697,-73.8203,53.22,17.96
94,Berdigestyakh,100,RU,1666232453,91,62.0989,126.6992,21.54,8.59
95,Cherskiy,100,RU,1666232453,95,68.75,161.3,25.32,8.61
96,Vila Velha,75,BR,1666232453,97,-20.3297,-40.2925,69.94,2.3
97,Pisco,0,PE,1666232454,88,-13.7,-76.2167,60.03,13.8
98,Bowen,42,AU,1666232454,75,-20.0167,148.2333,80.82,8.28
99,Ilulissat,100,GL,1666232454,74,69.2167,-51.1,28.42,8.05
100,Ola,99,RU,1666232455,42,59.5833,151.2833,28.09,13.47
101,Mount Gambier,6,AU,1666232455,52,-37.8333,140.7667,69.84,8.61
102,Marana,0,US,1666232456,27,32.4367,-111.2254,79.36,5.75
103,Chiredzi,38,ZW,1666232456,65,-21.05,31.6667,66.16,3.71
104,Flin Flon,96,CA,1666232456,78,54.7682,-101.865,46.0,4.76
105,Awjilah,68,LY,1666232457,56,29.1081,21.2869,69.62,6.49
106,Port Keats,65,AU,1666232457,58,-14.25,129.55,91.08,8.12
107,Cabo San Lucas,0,MX,1666232458,69,22.8909,-109.9124,81.7,3.44
108,Hobart,8,AU,1666232254,59,-42.8794,147.3294,67.05,1.99
109,Bluff,81,NZ,1666232458,77,-46.6,168.3333,50.13,30.56
110,Lázaro Cárdenas,100,MX,1666232458,84,17.9583,-102.2,79.05,1.72
111,Mahébourg,20,MU,1666232459,77,-20.4081,57.7,67.24,3.44
112,Faanui,28,PF,1666232459,75,-16.4833,-151.75,79.0,7.09
113,Kieta,44,PG,1666232460,61,-6.2167,155.6333,86.83,5.95
114,Dingle,90,PH,1666232460,75,10.9995,122.6711,84.56,4.56
115,Yellowknife,20,CA,1666232229,93,62.456,-114.3525,43.32,9.22
116,Calintaan,90,PH,1666232465,69,12.5667,120.9333,86.14,7.27
117,Cayenne,0,GF,1666232465,94,4.9333,-52.3333,77.04,0.0
118,Faya,0,SA,1666232466,32,18.3851,42.4509,53.71,4.12
119,Dobryanka,39,RU,1666232466,95,58.4619,56.4165,31.51,4.92
120,Sept-Îles,100,CA,1666232466,99,50.2001,-66.3821,50.52,14.97
121,Plettenberg Bay,29,ZA,1666232467,81,-34.0527,23.3716,63.43,12.06
122,Gijón,1,ES,1666232467,89,43.5357,-5.6615,62.8,1.01
123,Barcelos,53,PT,1666232468,89,41.5388,-8.6151,60.94,14.03
124,Portland,20,US,1666232468,69,45.5234,-122.6762,68.83,5.01
125,Beyneu,100,KZ,1666232468,51,45.3167,55.2,52.21,16.35
126,Camapuã,34,BR,1666232469,62,-19.5314,-54.0439,75.58,4.36
127,Kruisfontein,12,ZA,1666232469,65,-34.0033,24.7314,68.88,25.66
128,Qaqortoq,0,GL,1666232470,55,60.7167,-46.0333,34.07,29.84
129,Khatanga,100,RU,1666232470,96,71.9667,102.5,19.11,4.0
130,Lhokseumawe,100,ID,1666232471,81,5.1801,97.1507,80.22,2.64
131,Husavik,100,IS,1666232471,74,66.0449,-17.3389,31.51,10.4
132,Saskylakh,41,RU,1666232472,96,71.9167,114.0833,1.35,3.31
133,Labuhan,98,ID,1666232472,71,-6.8844,112.2051,84.24,3.94
134,Puerto Ayora,60,EC,1666232472,80,-0.7393,-90.3518,68.34,7.87
135,Alofi,46,NU,1666232473,74,-19.0595,-169.9187,82.29,6.91
136,Saint-Philippe,15,RE,1666232473,75,-21.3585,55.7679,65.79,6.4
137,Paita,97,PE,1666232308,83,-5.0892,-81.1144,62.51,14.99
138,Shimoda,0,JP,1666232475,52,34.6667,138.95,64.76,8.41
139,George Town,20,MY,1666232475,72,5.4112,100.3354,85.93,4.61
140,Seredka,68,RU,1666232475,91,58.1584,28.1858,35.35,5.86
141,Kirakira,81,SB,1666232476,73,-10.4544,161.9205,85.14,8.12
142,Aswān,0,EG,1666232476,43,24.0934,32.907,74.5,8.05
143,Hithadhoo,99,MV,1666232230,77,-0.6,73.0833,80.28,9.42
144,Amberley,0,US,1666232477,44,39.2048,-84.428,45.18,10.36
145,Tolmachëvo,100,RU,1666232477,75,54.9824,82.7363,40.98,11.18
146,Padang,100,ID,1666232478,74,-0.9492,100.3543,80.65,3.0
147,Dosso,99,NE,1666232478,34,13.049,3.1937,79.2,3.74
148,Kaitangata,56,NZ,1666232479,69,-46.2817,169.8464,53.51,16.58
149,Ashland,68,US,1666232479,91,40.8167,-82.2665,38.03,11.41
150,Cherepanovo,100,RU,1666232220,64,54.2222,83.381,38.61,13.91
151,Mikuni,0,JP,1666232480,53,36.2171,136.1519,64.31,8.21
152,Lavrentiya,100,RU,1666232480,87,65.5833,-171.0,36.12,25.19
153,Sokol'skoye,7,RU,1666232481,76,57.1412,43.1589,38.03,8.97
154,Pontal do Paraná,100,BR,1666232481,98,-25.6533,-48.5128,66.29,2.71
155,Punta Alta,100,AR,1666232482,61,-38.8759,-62.0736,63.7,10.16
156,Lata,4,PT,1666232482,95,40.1629,-8.3327,58.08,5.75
157,Pitiquito,6,MX,1666232482,29,30.7,-112.0833,83.93,2.21
158,Chui,80,UY,1666232483,97,-33.6971,-53.4616,58.39,6.49
159,Bubaque,56,GW,1666232483,76,11.2833,-15.8333,80.31,5.03
160,Jalu,78,LY,1666232484,52,29.0331,21.5482,70.21,6.87
161,Evensk,100,RU,1666232484,68,61.95,159.2333,20.34,8.46
162,Mutoko,78,ZW,1666232485,61,-17.397,32.2268,60.84,3.2
163,Mazatlán,75,MX,1666232405,84,23.2167,-106.4167,83.01,5.99
164,Prieska,4,ZA,1666232485,41,-29.6641,22.7474,70.12,3.0
165,Ormara,100,PK,1666232486,71,25.2088,64.6357,77.85,5.39
166,Rafaela,100,AR,1666232413,51,-31.2503,-61.4867,65.98,3.0
167,Isangel,75,VU,1666232486,74,-19.55,169.2667,82.51,6.91
168,Carnarvon,3,AU,1666232487,64,-24.8667,113.6333,70.99,11.41
169,Cabañas,100,CU,1666232487,83,22.9758,-82.9219,73.71,12.68
170,Hobyo,10,SO,1666232488,86,5.3505,48.5268,77.59,17.43
171,Tuktoyaktuk,100,CA,1666232236,86,69.4541,-133.0374,26.6,5.75
172,Souillac,20,MU,1666232489,77,-20.5167,57.5167,66.58,3.44
173,Williams Lake,75,CA,1666232489,54,52.1415,-122.1445,59.05,12.66
174,Kuna,0,US,1666232489,49,43.4918,-116.4201,61.41,0.0
175,Mahabalipuram,94,IN,1666232490,81,12.6264,80.1722,80.65,6.42
176,Lethem,100,GY,1666232490,78,3.3803,-59.7968,79.07,5.39
177,Waipawa,47,NZ,1666232491,54,-41.4122,175.5153,60.37,12.03
178,Yining,37,CN,1666232491,28,29.0361,114.5636,70.99,0.81
179,Baripāda,0,IN,1666232492,80,21.935,86.7214,76.33,7.81
180,Taltal,0,CL,1666232492,66,-25.4,-70.4833,61.32,3.6
181,Barrow,100,US,1666232469,93,71.2906,-156.7887,26.62,6.91
182,Ibrā’,47,OM,1666232493,39,22.6906,58.5334,69.17,1.72
183,Amiens,100,FR,1666232493,91,49.9,2.3,58.19,8.08
184,Bredasdorp,46,ZA,1666232493,94,-34.5322,20.0403,56.61,7.16
185,Lüshunkou,41,CN,1666232426,57,38.8,121.2667,66.42,14.58
186,Talara,90,PE,1666232396,84,-4.5772,-81.2719,63.66,16.93
187,Cidreira,57,BR,1666232494,94,-30.1811,-50.2056,62.89,5.86
188,Bandarbeyla,30,SO,1666232495,90,9.4942,50.8122,77.45,12.33
189,Oranjemund,77,NA,1666232495,88,-28.55,16.4333,60.1,12.21
190,Norman Wells,100,CA,1666232495,93,65.282,-126.8329,32.04,9.22
191,Butaritari,93,KI,1666232496,65,3.0707,172.7902,82.38,12.21
192,Río Gallegos,75,AR,1666232401,61,-51.6226,-69.2181,42.85,20.71
193,Forsytheganj,100,BY,1666232496,95,52.6333,29.7333,36.88,14.74
194,Adrar,87,MR,1666232497,14,20.5022,-10.0711,83.88,6.29
195,Honningsvåg,100,NO,1666232497,70,70.9821,25.9704,37.15,33.38
196,Beloha,0,MG,1666232498,69,-25.1667,45.05,68.99,10.74
197,Nyzy,100,UA,1666232498,88,50.7828,34.7844,43.16,11.32
198,La Ronge,75,CA,1666232498,58,55.1001,-105.2842,53.85,6.91
199,Yuancheng,52,CN,1666232499,60,36.652,107.7896,55.27,11.97
200,Dikson,100,RU,1666232499,98,73.5069,80.5464,32.32,20.62
201,Kathu,100,TH,1666232500,99,7.9178,98.3332,80.69,15.19
202,Giyani,0,ZA,1666232500,75,-23.3025,30.7187,67.55,4.32
203,Asău,78,RO,1666232500,86,46.4333,26.4,45.52,4.21
204,Arraial do Cabo,20,BR,1666232501,88,-22.9661,-42.0278,71.56,11.5
205,Lake Cowichan,100,CA,1666232501,75,48.825,-124.0546,59.2,0.87
206,Tayu,100,ID,1666232501,77,-6.5397,111.0518,82.15,6.26
207,Meulaboh,100,ID,1666232502,86,4.1363,96.1285,76.89,2.82
208,Arlit,0,NE,1666232502,23,18.7369,7.3853,76.5,11.86
209,Airai,90,TL,1666232503,62,-8.9266,125.4092,75.11,1.05
210,Ribeira Grande,100,PT,1666232503,74,38.5167,-28.7,63.77,4.0
211,Zhangjiakou Shi Xuanhua Qu,95,CN,1666232503,27,40.6103,115.0447,57.02,5.41
212,Esim,32,GH,1666232504,88,4.8699,-2.2405,76.6,6.64
213,Dedza,12,MW,1666232504,68,-14.3779,34.3332,59.94,4.14
214,Longyearbyen,40,SJ,1666232476,64,78.2186,15.6401,28.24,12.66
215,Tiksi,99,RU,1666232505,89,71.6872,128.8694,16.99,18.23
216,Clyde River,100,CA,1666232505,93,70.4692,-68.5914,21.43,8.05
217,Klaksvík,28,FO,1666232505,73,62.2266,-6.589,41.92,16.06
218,Anloga,63,GH,1666232506,86,5.7947,0.8973,78.73,12.12
219,College,100,US,1666232269,90,64.8569,-147.8028,36.81,0.0
220,Saint Paul Harbor,100,US,1666232506,61,57.79,-152.4072,47.71,13.8
221,Quelimane,40,MZ,1666232507,88,-17.8786,36.8883,73.35,0.0
222,Samarai,72,PG,1666232507,68,-10.6167,150.6667,85.53,11.65
223,Port Moresby,40,PG,1666232507,62,-9.4431,147.1797,89.02,11.5
224,Port Hardy,100,CA,1666232508,100,50.6996,-127.4199,57.38,0.0
225,Yar-Sale,100,RU,1666232508,84,66.8333,70.8333,36.7,15.93
226,Pulgaon,15,IN,1666232509,78,20.7333,78.3333,71.22,5.1
227,Ishinomaki,7,JP,1666232509,50,38.4167,141.3,64.4,16.82
228,Mporokoso,100,ZM,1666232509,39,-9.3727,30.125,64.87,6.29
229,Tiarei,6,PF,1666232510,77,-17.5333,-149.3333,77.02,10.71
230,Deputatsky,11,RU,1666232247,85,69.3,139.9,-0.22,5.1
231,Muisne,100,EC,1666232510,82,0.6,-80.0333,74.37,7.76
232,Onega,100,RU,1666232511,97,63.9061,38.1404,37.42,15.41
233,San Patricio,0,US,1666232511,32,28.017,-97.5169,63.86,6.11
234,Curuçá,97,BR,1666232511,77,-0.7289,-47.8481,79.27,8.28
235,Karīmnagar,10,IN,1666232512,88,18.4333,79.15,74.98,2.51
236,Hambantota,91,LK,1666232512,78,6.1241,81.1185,79.95,18.95
237,Byron Bay,100,AU,1666232240,82,-28.65,153.6167,70.72,13.0
238,Salalah,0,OM,1666232513,68,17.0151,54.0924,73.49,2.3
239,Zaterechnyy,42,RU,1666232513,80,44.7931,45.2097,54.18,6.02
240,Balaipungut,100,ID,1666232514,64,1.05,101.2833,85.24,1.86
241,Broome,20,US,1666232514,75,42.2506,-75.833,43.7,11.5
242,Altay,98,CN,1666232514,55,47.8667,88.1167,36.28,1.77
243,Malanje,100,AO,1666232515,96,-9.5402,16.341,65.41,3.11
244,Tezu,1,IN,1666232515,64,27.9167,96.1667,74.41,1.41
245,Caranavi,99,BO,1666232516,98,-15.8167,-67.55,64.45,2.39
246,High Level,75,CA,1666232413,71,58.5169,-117.136,48.31,4.61
247,Torbay,100,CA,1666232516,96,47.6666,-52.7314,55.76,12.66
248,Qaanaaq,0,GL,1666232517,66,77.484,-69.3632,-1.23,10.83
249,Lorengau,83,PG,1666232517,61,-2.0226,147.2712,87.01,8.41
250,Kitob,0,UZ,1666232518,46,39.0843,66.8332,46.45,4.63
251,Gerāsh,100,IR,1666232518,19,27.6652,54.1371,57.34,1.95
252,Kahului,40,US,1666232518,65,20.8947,-156.47,84.22,8.05
253,Bathsheba,75,BB,1666232519,83,13.2167,-59.5167,81.21,10.36
254,Port Blair,30,IN,1666232519,80,11.6667,92.75,81.36,15.28
255,Ajdabiya,91,LY,1666232520,64,30.7554,20.2263,68.2,8.21
256,Itarema,10,BR,1666232520,82,-2.9248,-39.9167,78.69,17.0
257,San Cristobal,100,VE,1666232521,97,7.7669,-72.225,71.78,1.36
258,Santo Antônio do Içá,100,BR,1666232521,94,-3.1022,-67.9397,75.45,0.72
259,Lüderitz,20,NA,1666232522,90,-26.6481,15.1594,59.49,17.94
260,Great Yarmouth,100,GB,1666232522,84,52.6083,1.7305,58.44,20.04
261,Ossora,100,RU,1666232522,47,59.2353,163.0719,32.7,10.11
262,Koróni,0,GR,1666232523,73,36.8,21.95,63.07,3.69
263,Namtsy,99,RU,1666232523,87,62.7161,129.6658,20.43,8.01
264,Nemuro,2,JP,1666232524,58,43.3236,145.575,52.52,9.55
265,Coruripe,5,BR,1666232525,76,-10.1256,-36.1756,73.74,8.41
266,Butembo,100,CD,1666232525,96,0.15,29.2833,56.14,2.82
267,Linxia Chengguanzhen,100,CN,1666232525,78,35.6003,103.2064,50.59,3.58
268,Palmer,20,US,1666232244,75,42.1584,-72.3287,43.41,0.0
269,Muros,17,ES,1666232526,87,42.7762,-9.0603,59.85,27.34
270,Winslow,0,US,1666232527,48,35.0242,-110.6974,60.98,6.91
271,Tailai,70,CN,1666232527,27,46.3833,123.4,55.4,6.58
272,Shipunovo,100,RU,1666232527,46,52.1582,82.2173,44.96,19.17
273,Udgīr,20,IN,1666232528,91,18.3833,77.1167,70.9,5.66
274,Beisfjord,100,NO,1666232528,99,68.3751,17.5988,42.04,5.01
275,Severo-Kuril'sk,66,RU,1666232529,69,50.6789,156.125,43.11,29.91
276,Muli,97,MV,1666232529,77,2.9167,73.5667,81.07,11.59
277,Mar del Plata,100,AR,1666232530,92,-38.0023,-57.5575,60.82,15.99
278,Shaunavon,29,CA,1666232530,24,49.6501,-108.4181,51.58,7.65
279,Lompoc,0,US,1666232531,61,34.6391,-120.4579,78.78,4.61
280,Richards Bay,99,ZA,1666232531,77,-28.783,32.0377,71.85,11.05
281,Lagoa,95,PT,1666232532,67,39.05,-27.9833,65.66,21.0
282,Nome,100,US,1666232532,87,64.5011,-165.4064,39.27,16.11
283,Belmonte,11,BR,1666232533,83,-15.8631,-38.8828,73.26,6.62
284,Bud,17,US,1666232533,55,39.447,-86.1758,42.06,7.47
285,Maningrida,51,AU,1666232534,53,-12.0667,134.2667,92.03,8.72
286,Saldanha,39,ZA,1666232534,89,-33.0117,17.9442,53.65,9.8
287,Chara,35,RU,1666232535,60,56.9064,118.2631,29.89,4.63
288,Hanamaki,75,JP,1666232535,51,39.3833,141.1167,61.0,12.66
289,Pesqueira,85,BR,1666232535,91,-8.3578,-36.6964,66.04,11.97
290,San Rafael del Sur,84,NI,1666232536,90,11.8485,-86.4384,81.57,3.67
291,Gogrial,15,SS,1666232536,85,8.5332,28.1004,73.17,3.15
292,Hong Kong,48,HK,1666232405,67,22.2855,114.1577,78.96,5.99
293,Esso,89,RU,1666232537,85,55.9333,158.7,24.26,15.68
294,Bambous Virieux,20,MU,1666232538,77,-20.3428,57.7575,67.21,3.44
295,San Luis de Gaceno,99,CO,1666232538,95,4.8205,-73.1685,73.17,3.51
296,Talnakh,100,RU,1666232416,96,69.4865,88.3972,34.21,14.47
297,Dărmăneşti,81,RO,1666232539,83,46.3667,26.4833,46.22,5.37
298,Kushima,0,JP,1666232539,56,31.4583,131.2333,69.53,12.41
299,Antalaha,98,MG,1666232540,76,-14.9003,50.2788,69.22,7.47
300,Kulhudhuffushi,82,MV,1666232540,79,6.6221,73.07,80.55,16.69
301,Kashan,0,IR,1666232541,47,33.9831,51.4364,60.39,4.61
302,Guerrero Negro,7,MX,1666232541,69,27.9769,-114.0611,74.55,12.46
303,Gao,0,ML,1666232532,20,16.6362,1.637,78.58,10.58
304,Pelotas,13,BR,1666232542,98,-31.7719,-52.3425,59.11,4.18
305,Dzaoudzi,0,YT,1666232542,94,-12.7887,45.2699,73.29,3.44
306,Greeley,0,US,1666232476,20,40.4233,-104.7091,62.69,8.05
307,Mokhsogollokh,100,RU,1666232543,84,61.4681,128.9203,25.32,9.46
308,Farafangana,91,MG,1666232543,87,-22.8167,47.8333,69.08,4.34
309,Fortuna,2,US,1666232544,83,40.5982,-124.1573,55.92,4.16
310,Aldan,100,RU,1666232544,93,58.6031,125.3894,23.07,11.3
311,Durban,54,ZA,1666232444,89,-29.8579,31.0292,71.02,1.01
312,Katherine,33,AU,1666232545,52,-14.4667,132.2667,91.72,5.75
313,Fairbanks,100,US,1666232545,91,64.8378,-147.7164,36.82,0.0
314,Saint-François,98,FR,1666232457,94,46.4154,3.9054,59.68,3.44
315,Soavinandriana,66,MG,1666232546,77,-19.1667,46.7333,55.78,4.43
316,Altayskoye,100,RU,1666232546,55,51.9533,85.3325,39.09,6.02
317,Point Pedro,100,LK,1666232547,79,9.8167,80.2333,80.69,3.83
318,Mossamedes,15,AO,1666232547,89,-15.1961,12.1522,62.6,7.31
319,Buchanan,97,LR,1666232548,91,5.8808,-10.0467,75.29,2.42
320,Lānja,40,IN,1666232548,91,16.85,73.55,74.48,2.24
321,Disna,19,BY,1666232549,92,55.568,28.1971,33.73,9.51
322,Alugan,100,PH,1666232549,83,12.2188,125.4808,80.58,11.83
323,Poso,55,ID,1666232550,63,-1.3959,120.7524,86.72,4.21
324,Berlevåg,75,NO,1666232550,86,70.8578,29.0864,33.8,39.12
325,Tuatapere,96,NZ,1666232551,83,-46.1333,167.6833,49.48,16.51
326,Aklavik,100,CA,1666232551,93,68.2191,-135.0107,26.2,6.13
327,Zolochiv,26,UA,1666232552,94,49.806,24.8944,37.74,10.42
328,Mosquera,100,CO,1666232473,94,4.7059,-74.2302,55.49,2.3
329,Saint-Ambroise,22,CA,1666232552,95,48.5501,-71.3324,40.59,3.6
330,Buala,92,SB,1666232553,69,-8.145,159.5921,85.66,5.77
331,Huambo,100,AO,1666232553,84,-12.7761,15.7392,61.61,2.39
332,Acapulco de Juárez,100,MX,1666232364,83,16.8634,-99.8901,78.62,6.91
333,Nikolskoye,89,RU,1666232554,93,59.7035,30.7861,33.69,4.43
334,Zeya,86,RU,1666232554,46,53.75,127.2667,41.81,4.97
335,Khovd,100,MN,1666232555,49,48.0056,91.6419,34.45,2.15
336,Makakilo City,100,US,1666232555,89,21.3469,-158.0858,73.98,8.05
337,Kavaratti,49,IN,1666232556,80,10.5669,72.642,80.53,10.76
338,Trincomalee,100,LK,1666232556,79,8.5711,81.2335,80.06,14.76
339,Neyshabur,0,IR,1666232557,61,36.2133,58.7958,52.92,1.16
340,Vao,94,NC,1666232557,63,-22.6667,167.4833,71.15,17.54
341,Geraldton,100,AU,1666232413,64,-28.7667,114.6,70.21,10.36
342,Pedasí,42,PA,1666232558,85,7.5333,-80.0333,77.07,8.05
343,Bonoua,58,CI,1666232558,92,5.2741,-3.595,78.42,4.32
344,Kumul,53,CN,1666232558,44,42.8,93.45,52.29,3.31
345,Griffith,0,US,1666232436,53,41.5284,-87.4237,40.89,6.91
346,San Policarpo,100,PH,1666232559,84,12.1791,125.5072,80.47,11.92
347,Westport,20,US,1666232559,62,41.1415,-73.3579,52.75,9.22
348,Kiryat Gat,96,IL,1666232419,72,31.61,34.7642,69.4,0.85
349,Rovinj,30,HR,1666232560,73,45.08,13.64,63.09,8.25
350,Union,0,US,1666232560,68,40.6334,-74.2663,52.9,6.91
351,Halifax,100,CA,1666232523,96,44.6453,-63.5724,64.29,9.22
352,Ardakān,0,IR,1666232561,37,32.31,54.0175,61.36,2.17
353,Ngunguru,62,NZ,1666232561,52,-35.6167,174.5,64.2,13.29
354,Cabedelo,88,BR,1666232562,74,-6.9811,-34.8339,74.07,13.73
355,Zhigansk,100,RU,1666232562,89,66.7697,123.3711,13.46,5.21
356,Sulphur Springs,0,US,1666232562,38,33.1385,-95.6011,48.94,6.62
357,Kemijärvi,96,FI,1666232563,83,66.7131,27.4306,32.27,5.06
358,Eureka,4,US,1666232521,84,40.8021,-124.1637,56.19,1.01
359,Hazorasp,11,UZ,1666232454,39,41.3194,61.0742,42.64,11.92
360,Mombetsu,75,JP,1666232564,51,44.3525,143.3525,57.22,17.27
361,Bilma,0,NE,1666232564,23,18.6853,12.9164,72.07,9.73
362,Port Augusta,50,AU,1666232564,46,-32.5,137.7667,73.44,16.33
363,Pangnirtung,58,CA,1666232565,68,66.1451,-65.7125,15.22,6.91
364,Tomé,92,CL,1666232565,87,-36.6167,-72.95,50.61,5.1
365,Kavieng,90,PG,1666232565,66,-2.5744,150.7967,85.8,8.34
366,Boa Vista,0,BR,1666232566,94,2.8197,-60.6733,73.38,2.3
367,Hervey Bay,98,AU,1666232566,81,-25.2986,152.8535,75.02,8.99
368,Marsh Harbour,100,BS,1666232567,70,26.5412,-77.0636,77.94,12.1
369,Biak,100,ID,1666232567,66,-0.9131,122.8766,84.25,1.52
370,Killybegs,100,IE,1666232567,91,54.6333,-8.45,53.29,18.34
371,Ikwiriri,70,TZ,1666232568,94,-7.9562,38.9716,67.57,1.19
372,Mayo,0,US,1666232568,75,38.8876,-76.5119,50.13,3.44
373,Pacific Grove,0,US,1666232569,51,36.6177,-121.9166,79.45,1.01
374,Zhenlai,89,CN,1666232569,27,45.8495,123.2973,55.22,7.63
375,Warri,100,NG,1666232570,93,5.5167,5.75,75.92,2.82
376,Nicoya,26,CR,1666232570,89,10.1483,-85.452,75.87,0.31
377,Coquimbo,0,CL,1666232545,82,-29.9533,-71.3436,55.13,1.14
378,Karratha,0,AU,1666232571,44,-20.7377,116.8463,84.67,5.12
379,Vestmannaeyjar,100,IS,1666232571,76,63.4427,-20.2734,43.16,6.15
380,Venice of the Philippines,100,PH,1666232572,73,4.6628,119.3928,83.17,4.99
381,Roald,100,NO,1666232572,87,62.5833,6.1333,41.76,9.22
382,Morant Bay,21,JM,1666232573,83,17.8815,-76.4093,83.82,5.44
383,Bilibino,15,RU,1666232573,93,68.0546,166.4372,15.71,3.91
384,Viedma,10,AR,1666232573,52,-40.8135,-62.9967,67.62,18.57
385,Sola,83,VU,1666232574,70,-13.8833,167.55,88.47,3.44
386,Dhidhdhoo,76,MV,1666232574,79,6.8833,73.1,80.8,16.24
387,Zweibrücken,20,DE,1666232574,81,49.25,7.3667,54.57,8.05
388,Ketchikan,100,US,1666232425,82,55.3422,-131.6461,54.07,8.05
389,Vardø,20,NO,1666232575,75,70.3705,31.1107,33.78,24.16
390,San Rafael,92,AR,1666232575,62,-34.6177,-68.3301,62.64,5.35
391,Abu Samrah,0,SY,1666232576,67,35.3029,37.1841,63.57,5.37
392,Bukama,99,CD,1666232576,77,-9.2,25.85,70.93,1.59
393,Potrerillos,100,HN,1666232576,98,15.2333,-87.9667,80.42,1.61
394,Raja,47,SS,1666232577,86,8.4596,25.678,70.75,3.38
395,Şerbăneşti,0,RO,1666232577,62,44.3333,24.7,51.01,7.11
396,Mackay,55,AU,1666232291,78,-21.15,149.2,78.87,5.64
397,Port Lincoln,11,AU,1666232578,67,-34.7333,135.8667,64.53,9.75
398,Sur,100,OM,1666232578,35,22.5667,59.5289,79.52,3.91
399,Saint George,0,US,1666232579,18,37.1041,-113.5841,77.95,4.61
400,Coyhaique,100,CL,1666232579,66,-45.5752,-72.0662,53.55,9.22
401,Teya,100,RU,1666232479,87,60.3778,92.6267,34.02,5.73
402,Kingsville,0,US,1666232580,66,27.5159,-97.8561,61.48,8.05
403,Yarmouth,0,US,1666232531,74,41.7057,-70.2286,52.97,11.01
404,Soe,79,ID,1666232580,55,-9.8607,124.284,82.98,2.24
405,Nouadhibou,0,MR,1666232581,68,20.931,-17.0347,73.38,14.97
406,Kununurra,96,AU,1666232581,46,-15.7667,128.7333,94.98,5.75
407,Moramanga,99,MG,1666232581,91,-18.9333,48.2,57.33,1.23
408,Keti Bandar,88,PK,1666232582,66,24.1447,67.4497,78.6,6.58
409,Zwedru,100,LR,1666232583,99,6.0667,-8.1281,69.87,1.36
410,Yaya,100,RU,1666232480,77,56.206,86.44,38.1,13.09
411,Tura,40,IN,1666232583,73,25.5198,90.2201,75.16,3.47
412,Joshīmath,15,IN,1666232333,54,30.5667,79.5667,52.59,2.28
413,Chatham,100,GB,1666232584,70,51.3789,0.5279,60.31,1.99
414,Agüimes,20,ES,1666232584,83,27.9054,-15.4461,67.66,9.22
415,Batemans Bay,100,AU,1666232585,70,-35.7167,150.1833,69.1,6.85
416,Mongoumba,100,CF,1666232585,99,3.6415,18.5936,71.06,3.76
417,Pauini,94,BR,1666232586,85,-7.7136,-66.9764,75.15,3.02
418,Bakloh,95,IN,1666232586,55,32.4667,75.9167,58.93,6.91
419,Broken Hill,38,AU,1666232482,50,-31.95,141.4333,73.42,7.02
420,Leningradskiy,100,RU,1666232587,96,69.3833,178.4167,32.5,23.53
421,eMkhomazi,50,ZA,1666232588,91,-30.2067,30.7978,70.68,10.47
422,Okakarara,42,NA,1666232588,50,-20.5833,17.4333,68.45,4.5
423,Iwanai,11,JP,1666232589,59,42.9744,140.5089,57.69,15.46
424,Tougan,0,BF,1666232589,38,13.0667,-3.0667,80.35,4.56
425,Naze,8,JP,1666232590,59,28.3667,129.4833,76.12,22.66
426,Isiolo,72,KE,1666232590,79,0.3546,37.5822,65.84,8.93
427,Lambaré,75,PY,1666232591,100,-25.3468,-57.6065,71.19,6.91
428,Chimay,100,BE,1666232591,82,50.0486,4.3171,56.82,12.75
429,Gucheng,1,CN,1666232591,33,35.9115,111.3192,61.3,4.45
430,Khuzhir,98,RU,1666232592,60,53.1939,107.3397,39.92,6.35
431,Vanimo,96,PG,1666232592,62,-2.6741,141.3028,86.29,6.31
432,Sieradz,0,PL,1666232593,79,51.5958,18.7302,32.45,1.66
433,Petelea,3,RO,1666232593,89,46.7289,24.7065,45.63,4.41
434,Maketu,82,NZ,1666232594,46,-37.7667,176.45,64.85,12.64
435,Neuquén,0,AR,1666232594,24,-38.9516,-68.0591,67.89,11.5
436,Uíge,100,AO,1666232595,96,-7.6087,15.0613,68.77,2.35
437,Warmbad,4,NA,1666232595,53,-28.45,18.7333,69.39,11.14
438,Charters Towers,41,AU,1666232595,37,-20.1,146.2667,90.79,6.04
439,Otautau,100,NZ,1666232596,85,-46.15,168.0,48.09,12.15
440,Emerald,88,AU,1666232596,63,-23.5333,148.1667,81.1,11.97
441,Navalcarnero,100,ES,1666232597,56,40.2891,-4.012,67.46,4.72
442,Launceston,8,AU,1666232597,40,-41.45,147.1667,74.16,10.36
443,Sakakah,60,SA,1666232310,16,29.9697,40.2064,69.37,6.35
444,Freeport,0,US,1666232542,59,40.6576,-73.5832,52.97,16.11
445,Gigmoto,80,PH,1666232598,71,13.7796,124.39,85.03,2.66
446,Aripuanã,96,BR,1666232599,96,-9.1667,-60.6333,71.87,3.42
447,Los Llanos de Aridane,0,ES,1666232600,55,28.6585,-17.9182,64.15,8.01
448,Huilong,5,CN,1666232600,55,31.8111,121.655,67.93,13.06
449,Ābādān,0,IR,1666232601,56,30.3392,48.3043,69.75,2.3
450,Laguna,0,US,1666232601,45,38.421,-121.4238,80.31,0.0
451,Vryheid,100,ZA,1666232601,92,-27.7695,30.7917,61.56,2.71
452,Luís Correia,35,BR,1666232602,78,-2.8792,-41.6669,79.47,13.29
453,Djambala,100,CG,1666232602,95,-2.5447,14.7533,68.7,4.34
454,Gōdo,0,JP,1666232603,38,35.4167,136.6,66.94,1.9
455,Havre-St-Pierre,100,CA,1666232603,100,50.2334,-63.5986,52.16,14.97
456,Demidov,100,RU,1666232604,89,55.2706,31.515,40.39,14.0
457,Namatanai,92,PG,1666232605,62,-3.6667,152.4333,86.94,5.3
458,Baghdad,100,IQ,1666232337,40,33.3406,44.4009,69.71,4.61
459,Srednekolymsk,100,RU,1666232489,93,67.45,153.6833,16.02,21.54
460,Katwa,0,IN,1666232606,64,23.6399,88.128,77.14,7.05
461,Skibotn,99,NO,1666232606,98,69.3913,20.2679,38.12,7.25
462,Hualmay,76,PE,1666232606,83,-11.0964,-77.6139,61.3,10.58
463,Panna,15,IN,1666232607,67,24.7167,80.2,68.5,4.59
464,Puri,3,IN,1666232607,81,19.8,85.85,77.52,10.6
465,Te Anau,100,NZ,1666232608,93,-45.4167,167.7167,45.72,5.75
466,Bemidji,0,US,1666232605,68,47.4736,-94.8803,40.77,0.0
467,Constitución,5,CL,1666232608,93,-35.3333,-72.4167,51.71,7.76
468,San Nicolas,100,PH,1666232609,100,18.1725,120.5953,75.11,4.61
469,Whyalla,72,AU,1666232609,61,-33.0333,137.5833,67.69,15.23
470,Santa Cecília,100,BR,1666232610,99,-26.9608,-50.4269,57.54,3.24
471,Mariestad,3,SE,1666232610,93,58.7097,13.8237,39.51,8.21
472,Pemangkat,53,ID,1666232611,71,1.1667,108.9667,83.35,3.74
473,Mananjary,76,MG,1666232611,81,-21.2167,48.3333,68.94,2.73
474,Wasilla,100,US,1666232612,82,61.5814,-149.4394,46.78,4.61
475,Havelock,0,US,1666232612,79,34.8791,-76.9013,51.75,0.0
476,Kendari,77,ID,1666232613,65,-3.945,122.4989,86.27,6.08
477,Whitefish,0,US,1666232613,85,48.4111,-114.3376,48.88,0.0
478,Zhanakorgan,54,KZ,1666232613,48,43.9098,67.2495,43.41,13.42
479,‘Ewa Beach,75,US,1666232614,89,21.3156,-158.0072,75.4,8.05
480,Borogontsy,99,RU,1666232614,88,62.6683,131.1683,18.54,6.15
481,Saint-Pierre,0,RE,1666232615,63,-21.3393,55.4781,65.91,8.05
482,Otane,53,NZ,1666232615,57,-39.8833,176.6333,66.0,13.31
483,Gaozhou,100,CN,1666232616,71,21.9392,110.8461,66.56,2.51
484,Bermejillo,10,MX,1666232616,54,25.8833,-103.6167,68.04,4.18
485,Deming,0,US,1666232616,58,32.2687,-107.7586,57.09,3.44
486,São José da Coroa Grande,68,BR,1666232617,83,-8.8978,-35.1478,74.39,10.98
487,Yulara,0,AU,1666232319,37,-25.2406,130.9889,75.07,2.53
488,Kibala,0,TD,1666232617,94,9.1104,18.3463,73.35,2.3
489,Ostrovnoy,100,RU,1666232618,62,68.0531,39.5131,35.8,35.12
490,Sri Aman,20,MY,1666232618,84,1.2376,111.4621,84.25,2.3
491,Martapura,20,ID,1666232618,74,-3.4167,114.85,86.09,3.44
492,Chumikan,21,RU,1666232619,65,54.7183,135.315,40.33,19.48
493,Fayaoué,49,NC,1666232619,71,-20.65,166.5333,75.61,15.03
494,Novoagansk,100,RU,1666232620,93,61.9449,76.6625,37.87,10.31
495,Fort Saint James,100,CA,1666232620,34,54.4333,-124.25,56.98,11.7
496,Araouane,82,ML,1666232621,16,18.9048,-3.5265,85.44,2.24
497,Aksarka,100,RU,1666232621,92,66.5606,67.7975,33.22,14.85
498,Teguise,0,ES,1666232621,88,29.0605,-13.564,66.42,5.75
499,Marsabit,90,KE,1666232622,77,2.3284,37.9899,62.13,20.15
500,Rāvar,2,IR,1666232622,35,31.2656,56.8055,61.88,1.88
501,Muroto-misakicho,0,JP,1666232622,51,33.2833,134.15,67.08,9.64
502,Marrakesh,0,MA,1666232623,56,31.6315,-8.0083,69.87,4.61
503,Marathon,0,US,1666232623,65,44.9,-89.7668,35.35,5.75
504,Sandwick,100,GB,1666232624,66,60.0,-1.25,46.22,8.05
505,LaBelle,14,US,1666232624,60,26.7617,-81.4384,62.62,6.82
506,Entre Rios,0,BR,1666232625,94,-11.9419,-38.0844,66.07,3.24
507,Great Bend,0,US,1666232625,47,38.3645,-98.7648,57.04,0.0
508,Puteyets,100,RU,1666232625,96,65.1716,57.091,32.22,8.25
509,Maun,88,BW,1666232626,36,-19.9833,23.4167,76.15,10.94
510,Bognor Regis,100,GB,1666232626,96,50.7821,-0.6798,62.92,3.09
511,Marawi,99,PH,1666232627,70,7.9986,124.2928,80.56,0.43
512,Xiongyue,88,CN,1666232627,59,40.1774,122.1228,61.61,15.82
513,Teahupoo,20,PF,1666232628,77,-17.8333,-149.2667,71.56,11.59
514,Barnstaple,100,GB,1666232628,93,51.0802,-4.0581,57.2,5.99
515,Kualakapuas,86,ID,1666232629,72,-3.0091,114.3876,85.26,3.29
516,Omboué,100,GA,1666232629,89,-1.5746,9.2618,76.33,8.39
517,Nuevo Progreso,6,MX,1666232629,62,23.1667,-97.95,65.46,5.08
518,Antofagasta,30,CL,1666232630,77,-23.65,-70.4,58.28,4.72
519,Saint-Augustin,100,CA,1666232631,92,51.226,-58.6502,50.56,15.55
520,Manaure,3,CO,1666232631,76,11.7751,-72.4445,82.65,14.27
521,Hūn,46,LY,1666232631,63,29.1268,15.9477,66.06,4.65
522,Bumba,100,CD,1666232632,92,2.1833,22.4667,69.51,2.08
523,Erenhot,9,CN,1666232632,42,43.6475,111.9767,58.42,17.07
524,Sobolevo,100,RU,1666232633,93,54.4299,31.8996,42.17,16.37
525,Ambovombe,1,MG,1666232633,91,-25.1667,46.0833,67.14,9.48
526,Grand Gaube,59,MU,1666232633,69,-20.0064,57.6608,67.37,5.99
527,Yatou,7,CN,1666232634,51,37.15,122.3833,62.96,10.13
528,Kashgar,100,CN,1666232634,24,39.4547,75.9797,56.41,11.18
529,Yangi Marg`ilon,14,UZ,1666232635,87,40.4272,71.7189,39.92,2.3
530,Tateyama,0,JP,1666232635,46,34.9833,139.8667,63.55,9.6
531,Mumbai,40,IN,1666232489,89,19.0144,72.8479,82.38,8.05
532,Rio Grande,2,BR,1666232636,94,-32.035,-52.0986,60.85,7.27
533,Boende,100,CD,1666232636,99,-0.2167,20.8667,68.65,1.61
534,Gillette,0,US,1666232357,42,44.2911,-105.5022,52.86,4.61
535,Izhma,100,RU,1666232471,94,65.0083,53.9113,33.53,8.88
536,Chahal Guatemala,100,GT,1666232637,99,15.75,-89.5667,71.89,0.69
537,Carauari,100,BR,1666232638,98,-4.8828,-66.8958,74.03,1.86
538,Greenfield,0,US,1666232638,72,42.9614,-88.0126,35.71,4.61
539,Mathbaria,0,BD,1666232639,73,22.2876,89.9593,77.68,8.28
540,Pangody,100,RU,1666232639,97,65.85,74.4859,35.85,12.82
541,Lesnoy,84,RU,1666232640,86,57.6198,63.0784,33.67,6.55
542,Usinsk,100,RU,1666232640,93,65.9939,57.5281,31.1,11.07
543,Ploemeur,100,FR,1666232640,93,47.7333,-3.4333,58.82,6.91
544,Arman',100,RU,1666232641,45,59.7,150.1667,26.56,7.11
545,Iguape,99,BR,1666232445,96,-24.7081,-47.5553,68.13,1.61
546,Yeppoon,96,AU,1666232642,81,-23.1333,150.7333,74.98,10.51
547,Aku,100,NG,1666232642,98,6.7081,7.3167,70.66,2.44
548,Paamiut,0,GL,1666232642,65,61.994,-49.6678,30.29,21.12
549,Hidalgo,100,MX,1666232489,97,20.5,-99.0,49.89,4.38
550,Peterhead,100,GB,1666232643,75,57.5058,-1.7981,50.4,18.88
551,Isla Vista,58,US,1666232644,44,34.4133,-119.861,80.46,3.91
552,Sengés,95,BR,1666232644,93,-24.1128,-49.4636,65.55,3.76
553,Douglas,0,US,1666232645,49,41.3,-96.167,48.07,4.61
554,Hongjiang,97,CN,1666232645,23,27.11,109.9956,69.55,1.97
555,Kuytun,97,RU,1666232646,87,54.3419,101.5036,34.77,2.3
556,Palmares do Sul,86,BR,1666232428,96,-30.2578,-50.5097,62.04,5.97
557,Amga,100,RU,1666232646,86,60.8953,131.9608,26.92,9.04
558,Necochea,100,AR,1666232647,90,-38.5473,-58.7368,57.92,10.54
559,Bintulu,20,MY,1666232647,83,3.1667,113.0333,82.81,3.44
560,Mirzāpur,0,IN,1666232647,62,25.15,82.5833,73.36,3.71
561,Puerto Suárez,10,BO,1666232648,72,-18.95,-57.8,77.14,2.24
562,Trairi,21,BR,1666232418,81,-3.2778,-39.2689,78.66,13.44
563,Camacha,20,PT,1666232649,88,33.0833,-16.3333,67.42,2.3
564,Turukhansk,100,RU,1666232649,97,65.8167,87.9833,33.96,20.45
565,Mozarlândia,24,BR,1666232650,31,-14.7447,-50.5706,85.86,2.17
566,Manta,100,EC,1666232650,83,-0.95,-80.7333,71.38,10.36
567,Chitral,0,PK,1666232650,54,35.8462,71.7858,47.05,5.99
568,Cockburn Town,20,TC,1666232651,76,21.4612,-71.1419,82.96,11.21
569,Zhezkazgan,75,KZ,1666232651,49,47.8043,67.7144,46.38,17.9
570,Mojo,13,ET,1666232652,49,8.6,39.1167,55.11,4.83
